City_ID,City,Lat,Lng,Max Temp,Humidity,Cloudiness,Wind Speed,Country,Date
0,port-aux-francais,-49.35,70.2167,275.23,58,88,4.36,TF,1689563765
1,ixtapa,20.7,-105.2,303.72,79,75,1.03,MX,1689563765
2,veinticinco de mayo,-35.4323,-60.1727,273.7,81,60,0.89,AR,1689563765
3,nemuro,43.3236,145.575,286.03,93,99,2.96,JP,1689563766
4,grytviken,-54.2811,-36.5092,267.04,87,84,1.68,GS,1689563766
5,blackmans bay,-43.0167,147.3167,289.11,53,35,4.32,AU,1689563767
6,ushuaia,-54.8,-68.3,273.96,75,40,1.54,AR,1689563767
7,kone,-21.0595,164.8658,298.2,42,11,4.23,NC,1689563768
8,papatowai,-46.5619,169.4708,283.41,88,100,7.58,NZ,1689563768
9,invercargill,-46.4,168.35,283.37,93,100,7.72,NZ,1689563768
10,newman,37.3138,-121.0208,309.42,42,99,0.45,US,1689563768
11,obukhiv,50.11,30.6227,295.09,77,19,2.6,UA,1689563769
12,wailua homesteads,22.0669,-159.378,301.39,83,75,8.75,US,1689563769
13,bethel,41.3712,-73.414,297.24,90,100,0.0,US,1689563769
14,port mathurin,-19.6833,63.4167,296.28,71,92,11.42,MU,1689563770
15,el abiodh sidi cheikh,32.893,0.5484,298.38,11,0,3.68,DZ,1689563770
16,thunder bay,48.4001,-89.3168,285.14,94,75,2.06,CA,1689563770
17,simanggang,1.2472,111.4528,304.14,70,20,2.06,MY,1689563770
18,klyuchi,52.2667,79.1667,294.96,59,17,3.47,RU,1689563771
19,atafu village,-8.5421,-172.5159,301.84,77,97,6.84,TK,1689563633
20,haiku-pauwela,20.9219,-156.3051,301.16,55,40,8.75,US,1689563771
21,hermanus,-34.4187,19.2345,287.14,79,100,3.2,ZA,1689563772
22,nobres,-14.7203,-56.3275,296.2,43,2,0.3,BR,1689563772
23,waitangi,-43.9535,-176.5597,283.05,79,100,2.68,NZ,1689563772
24,antalaha,-14.9003,50.2788,293.63,91,74,2.99,MG,1689563772
25,zabol,32.25,67.25,300.84,11,0,0.25,AF,1689563773
26,lerwick,60.1545,-1.1494,285.15,90,100,6.94,GB,1689563773
27,tiksi,71.6872,128.8694,280.41,91,100,4.99,RU,1689563773
28,badger,64.8,-147.5333,295.1,45,100,3.09,US,1689563773
29,naryshkino,52.9678,35.7268,290.24,73,100,2.25,RU,1689563774
30,puerto natales,-51.7236,-72.4875,272.59,90,98,2.07,CL,1689563774
31,adamstown,-25.066,-130.1015,294.37,79,100,3.8,PN,1689563774
32,thompson,55.7435,-97.8558,289.24,82,100,2.06,CA,1689563774
33,bredasdorp,-34.5322,20.0403,285.7,78,100,2.77,ZA,1689563775
34,nishinoomote,30.7333,131.0,304.46,79,75,6.17,JP,1689563775
35,hamilton,39.1834,-84.5333,296.53,91,75,4.63,US,1689563775
36,am timan,11.0297,20.2827,296.62,80,100,0.88,TD,1689563776
37,baidoa,3.1138,43.6498,292.65,89,100,5.72,SO,1689563776
38,san mariano,7.5,126.0,302.96,62,97,1.47,PH,1689563776
39,vallegrande,-18.4897,-64.1069,283.01,97,66,1.83,BO,1689563776
40,makarov,48.6333,142.8,286.42,93,100,1.82,RU,1689563777
41,tazovsky,67.4667,78.7,285.22,63,100,8.24,RU,1689563777
42,hammerfest,70.6634,23.6821,290.4,72,100,6.69,NO,1689563777
43,flying fish cove,-10.4217,105.6791,298.97,83,100,5.14,CX,1689563778
44,kulhudhuffushi,6.6221,73.07,301.34,77,100,7.28,MV,1689563778
45,tolanaro,-25.0319,46.9987,290.83,76,8,2.37,MG,1689563778
46,post,33.1909,-101.3782,304.75,35,0,3.74,US,1689563778
47,oruro,-17.9833,-67.15,278.54,42,0,0.62,BO,1689563779
48,ust-nera,64.5667,143.2,289.64,40,100,2.98,RU,1689563779
49,allahabad,25.45,81.85,304.73,64,90,4.22,IN,1689563779
50,albany,42.6001,-73.9662,295.66,93,100,1.59,US,1689563550
51,cuyo,10.8525,121.0086,301.76,78,71,7.83,PH,1689563780
52,show low,34.2542,-110.0298,303.31,17,0,0.0,US,1689563780
53,jutai,-5.1833,-68.9,295.11,99,44,0.45,BR,1689563780
54,trujillo,-8.116,-79.03,295.13,88,100,4.12,PE,1689563781
55,phan thiet,10.9333,108.1,303.24,65,100,7.73,VN,1689563781
56,spring creek,40.7266,-115.5859,303.87,17,100,1.39,US,1689563782
57,mata-utu,-13.2816,-176.1745,300.25,80,49,7.04,WF,1689563782
58,saipan,15.1355,145.701,304.54,100,75,6.69,MP,1689563782
59,luanda,-8.8368,13.2343,294.15,88,75,1.03,AO,1689563782
60,cabo san lucas,22.8909,-109.9124,302.62,76,0,4.63,MX,1689563783
61,san pedro pochutla,15.7333,-96.4667,301.32,91,100,1.97,MX,1689563783
62,kununurra,-15.7667,128.7333,303.14,28,5,7.72,AU,1689563722
63,arraial do cabo,-22.9661,-42.0278,293.07,94,0,2.57,BR,1689563783
64,caleta de carquin,-11.0925,-77.6267,292.76,81,24,4.05,PE,1689563784
65,enewetak,11.3474,162.3373,301.51,78,99,6.2,MH,1689563784
66,sol'tsy,58.1239,30.3238,289.48,71,100,1.98,RU,1689563784
67,zouerate,22.7187,-12.4521,299.03,47,2,5.89,MR,1689563784
68,west island,-12.1568,96.8225,300.14,61,75,5.66,CC,1689563785
69,makurazaki,31.2667,130.3167,300.8,81,90,6.37,JP,1689563785
70,walvis bay,-22.9575,14.5053,293.73,27,0,4.62,NA,1689563785
71,magadan,59.5667,150.8,294.0,80,41,2.93,RU,1689563785
72,wichian buri,15.6578,101.106,299.58,82,100,1.24,TH,1689563786
73,stanley,54.868,-1.6985,284.16,88,20,4.63,GB,1689563786
74,isafjordur,66.0755,-23.124,280.59,68,15,1.68,IS,1689563786
75,jamestown,42.097,-79.2353,294.66,77,0,2.57,US,1689563675
76,dunedin,-45.8742,170.5036,289.15,42,100,5.23,NZ,1689563787
77,aasiaat,68.7098,-52.8699,275.79,95,100,2.49,GL,1689563787
78,wewak,-3.5534,143.6268,301.98,75,14,1.05,PG,1689563787
79,xilin hot,43.9667,116.0333,301.2,29,5,2.66,CN,1689563788
80,pionerskiy,54.9508,20.2275,289.12,78,75,2.76,RU,1689563788
81,khandyga,62.6667,135.6,292.01,35,8,2.39,RU,1689563789
82,calingasta,-31.3308,-69.4078,277.82,51,0,2.54,AR,1689563790
83,ancud,-41.8697,-73.8203,275.45,85,30,3.07,CL,1689563602
84,eastham,41.8301,-69.9739,296.48,86,100,4.02,US,1689563790
85,port elizabeth,-33.918,25.5701,281.31,93,0,2.06,ZA,1689563530
86,olonkinbyen,70.9221,-8.7187,277.23,96,100,9.79,SJ,1689563792
87,richards bay,-28.783,32.0377,288.87,87,0,1.79,ZA,1689563792
88,kapa'a,22.0752,-159.319,302.14,83,75,8.75,US,1689563792
89,edinburgh of the seven seas,-37.0676,-12.3116,286.13,67,1,12.1,SH,1689563793
90,brookings,44.3114,-96.7984,290.98,77,0,2.57,US,1689563566
91,kilindoni,-7.9139,39.6668,297.87,76,0,8.09,TZ,1689563793
92,nabire,-3.3667,135.4833,298.54,85,100,1.78,ID,1689563793
93,zeya,53.75,127.2667,304.41,35,27,2.83,RU,1689563794
94,guerrero negro,27.9769,-114.0611,293.91,81,16,5.74,MX,1689563512
95,feicheng,35.2606,117.9675,303.97,49,1,5.01,CN,1689563794
96,coquimbo,-29.9533,-71.3436,286.0,94,75,4.12,CL,1689563596
97,kattivakkam,13.2167,80.3167,304.2,73,100,4.56,IN,1689563795
98,lobito,-12.3481,13.5456,294.4,77,4,2.23,AO,1689563795
99,iqaluit,63.7506,-68.5145,279.0,100,100,2.57,CA,1689563795
100,ulsteinvik,62.3432,5.8487,289.81,88,96,6.26,NO,1689563795
101,lihue,21.9789,-159.3672,301.73,79,75,8.75,US,1689563795
102,margaret river,-33.95,115.0667,288.19,71,81,2.87,AU,1689563796
103,waiuku,-37.25,174.75,289.4,78,7,4.94,NZ,1689563796
104,zaozersk,69.4005,32.4476,288.48,71,100,1.81,RU,1689563796
105,bilibino,68.0546,166.4372,300.9,28,89,5.12,RU,1689563796
106,puerto ayora,-0.7393,-90.3518,298.46,95,57,2.68,EC,1689563570
107,rongelap,11.1635,166.8941,301.6,77,99,6.41,MH,1689563797
108,terbanggi besar,-4.8667,105.2333,301.7,70,2,2.21,ID,1689563797
109,vilyuchinsk,52.9306,158.4028,292.3,85,61,1.67,RU,1689563797
110,nha trang,12.25,109.1833,306.15,54,100,1.7,VN,1689563797
111,makokou,0.5738,12.8642,294.22,95,55,1.33,GA,1689563797
112,bardai,11.65,7.2333,297.8,68,82,1.9,NG,1689563798
113,igarka,67.4667,86.5833,285.48,53,8,4.48,RU,1689563798
114,shiraoi,42.55,141.35,300.79,87,99,2.06,JP,1689563798
115,vorgashor,67.5833,63.95,288.16,91,100,4.49,RU,1689563798
116,labrador city,52.9463,-66.9114,292.1,82,100,3.09,CA,1689563798
117,ketchikan,55.3422,-131.6461,290.41,77,75,5.66,US,1689563798
118,abqaiq,25.9371,49.6776,307.25,13,3,4.26,SA,1689563799
119,san antonio de pale,-1.4014,5.6325,295.96,82,30,6.03,GQ,1689563799
120,la passe,45.5549,-0.8967,288.14,80,0,1.28,FR,1689563799
121,mil'kovo,55.6078,37.7956,289.88,80,0,2.05,RU,1689563799
122,east end,34.5507,-92.341,299.6,94,69,2.42,US,1689563800
123,iskateley,67.6803,53.1512,289.36,81,90,4.55,RU,1689563800
124,ribeira grande,38.5167,-28.7,291.36,83,17,3.13,PT,1689563590
125,qarah bagh,34.9402,61.7759,300.06,18,0,4.22,AF,1689563800
126,funehikimachi-funehiki,37.4333,140.5833,305.79,45,3,3.31,JP,1689563800
127,porto san giorgio,43.1827,13.7934,301.48,53,0,2.64,IT,1689563800
128,saldanha,-33.0117,17.9442,286.44,87,100,1.06,ZA,1689563801
129,merizo village,13.2658,144.6691,304.46,83,100,5.98,GU,1689563801
130,prince rupert,54.3161,-130.3201,288.2,86,100,2.57,CA,1689563570
131,inhambane,-23.865,35.3833,289.47,80,9,1.76,MZ,1689563801
132,college,64.8569,-147.8028,295.14,46,75,3.09,US,1689563801
133,chipata,-13.6333,32.65,283.92,69,0,2.44,ZM,1689563801
134,plymouth,41.8334,-70.8328,296.27,90,100,3.6,US,1689563758
135,at taj,24.2049,23.2857,299.93,16,0,2.67,LY,1689563802
136,hawaiian paradise park,19.5933,-154.9731,299.28,82,100,3.6,US,1689563802
137,fada,9.5667,8.3,293.48,96,63,0.99,NG,1689563802
138,kedougou,12.5579,-12.1743,295.59,96,100,1.66,SN,1689563802
139,crockett,31.3182,-95.4566,301.14,78,0,2.06,US,1689563769
140,hovd,48.0056,91.6419,297.51,25,0,2.09,MN,1689563631
141,puerto deseado,-47.7503,-65.8938,273.37,56,21,7.4,AR,1689563803
142,sorong,-0.8833,131.25,299.71,83,100,4.39,ID,1689563803
143,novo aripuana,-5.1206,-60.3797,298.7,70,87,0.37,BR,1689563803
144,karlivka,49.4567,35.1295,289.03,72,0,2.17,UA,1689563803
145,barra de santo antonio,-9.4047,-35.5072,296.75,84,47,3.66,BR,1689563804
146,kalymnos,36.95,26.9833,300.89,50,0,5.14,GR,1689563804
147,tateyama,34.9833,139.8667,305.11,62,20,2.57,JP,1689563804
148,geraldton,-28.7667,114.6,288.38,63,0,0.51,AU,1689563804
149,ola,59.5833,151.2833,294.34,83,25,3.96,RU,1689563804
150,mahibadhoo,3.7833,72.9667,301.94,75,87,6.26,MV,1689563804
151,berdigestyakh,62.0989,126.6992,292.11,37,68,3.03,RU,1689563805
152,ilulissat,69.2167,-51.1,278.16,100,100,1.03,GL,1689563805
153,bridport,50.7338,-2.7583,288.46,92,9,5.18,GB,1689563805
154,fort bragg,35.139,-79.006,299.77,84,0,0.0,US,1689563805
155,colonia,50.9333,6.95,290.9,72,0,1.54,DE,1689563590
156,carnarvon,-24.8667,113.6333,292.65,27,0,2.7,AU,1689563806
157,matthew town,20.95,-73.6667,301.5,83,0,7.8,BS,1689563806
158,nova sintra,14.8667,-24.7167,295.72,86,96,4.83,CV,1689563806
159,sao luis,-2.5297,-44.3028,301.26,83,0,3.09,BR,1689563806
160,neijiang,29.5835,105.0622,303.29,70,0,0.54,CN,1689563806
161,soio,-6.1349,12.3689,293.43,94,4,2.49,AO,1689563807
162,camana,-16.6228,-72.7111,290.28,84,3,3.88,PE,1689563807
163,sao raimundo nonato,-9.0153,-42.6994,294.87,52,5,1.31,BR,1689563807
164,xinzhi,36.4989,111.7047,306.25,28,0,1.44,CN,1689563807
165,orapa,-21.2833,25.3667,283.66,41,84,3.59,BW,1689563807
166,nieves,15.3274,120.9485,298.88,85,100,5.28,PH,1689563807
167,dauphin,51.1494,-100.0502,285.23,94,40,2.06,CA,1689563808
168,murzuq,25.9155,13.9184,300.73,17,49,3.69,LY,1689563808
169,pachino,36.7186,15.0907,300.76,54,0,1.84,IT,1689563808
170,vadso,70.0744,29.7487,286.64,87,75,5.14,NO,1689563809
171,westport,41.1415,-73.3579,297.94,92,75,1.54,US,1689563809
172,ta`u,-14.2336,-169.5144,300.09,77,24,7.09,AS,1689563809
173,nueva rosita,27.95,-101.2167,307.28,20,6,7.05,MX,1689563809
174,codrington,-38.2667,141.9667,286.11,64,0,5.76,AU,1689563809
175,rikaze,29.25,88.8833,289.85,52,97,0.31,CN,1689563809
176,amreli,21.6167,71.2333,300.8,78,28,3.46,IN,1689563810
177,anisoc,1.8658,10.7689,294.14,98,77,0.88,GQ,1689563810
178,yellowknife,62.456,-114.3525,294.44,52,100,3.09,CA,1689563810
179,al qadarif,14.0349,35.3834,298.58,69,49,6.86,SD,1689563810
180,arawa,-6.2132,155.5367,301.87,85,85,0.79,PG,1689563810
181,kodiak,57.79,-152.4072,285.88,82,100,1.54,US,1689563810
182,portland,45.5234,-122.6762,301.6,46,20,5.14,US,1689563519
183,basco,20.4487,121.9702,302.57,81,100,4.0,PH,1689563812
184,soe,-9.8607,124.284,298.36,51,68,4.58,ID,1689563812
185,colon,9.3592,-79.9014,296.99,90,100,1.79,PA,1689563813
186,puerto baquerizo moreno,-0.9,-89.6,298.14,85,58,5.56,EC,1689563813
187,udachny,66.4167,112.4,283.4,87,100,5.35,RU,1689563813
188,kimbe,-5.5502,150.1429,305.24,54,19,5.07,PG,1689563813
189,punta arenas,-53.15,-70.9167,277.21,75,75,8.23,CL,1689563687
190,utrik,11.2278,169.8474,301.23,79,75,6.97,MH,1689563813
191,afaahiti,-17.75,-149.2833,300.08,57,2,1.42,PF,1689563814
192,zemio,5.0314,25.1361,293.22,90,7,0.76,CF,1689563814
193,kani keli,-12.9536,45.1033,297.74,71,1,7.51,YT,1689563814
194,suva,-18.1416,178.4415,296.86,78,75,4.63,FJ,1689563546
195,tadine,-21.55,167.8833,294.93,67,59,8.06,NC,1689563814
196,stellenbosch,-33.9346,18.8668,287.49,75,91,2.95,ZA,1689563815
197,mikashevichy,52.2173,27.476,291.96,86,52,2.66,BY,1689563815
198,christchurch,-43.5333,172.6333,289.53,58,15,2.57,NZ,1689563815
199,coahuayana de hidalgo,18.7,-103.6583,300.36,87,27,0.81,MX,1689563815
200,anadyr,64.75,177.4833,298.43,38,0,5.0,RU,1689563816
201,east london,-33.0153,27.9116,289.45,45,69,2.19,ZA,1689563816
202,chonchi,-42.6128,-73.8092,274.88,93,8,0.92,CL,1689563816
203,georgetown,5.4112,100.3354,305.34,76,20,1.54,MY,1689563696
204,byalynichy,53.9983,29.7126,289.45,83,100,2.25,BY,1689563816
205,dudinka,69.4058,86.1778,282.94,46,26,7.65,RU,1689563816
206,bodo,67.28,14.405,288.12,89,0,5.66,NO,1689563817
207,new norfolk,-42.7826,147.0587,289.77,56,29,4.91,AU,1689563817
208,cidreira,-30.1811,-50.2056,284.68,77,100,3.55,BR,1689563817
209,mili,6.0815,171.735,301.4,72,57,6.17,MH,1689563817
210,el alto,-4.2714,-81.2147,294.35,84,66,6.94,PE,1689563817
211,didwana,27.4,74.5667,302.98,62,78,3.69,IN,1689563817
212,kannauj,27.0546,79.922,305.09,59,100,3.53,IN,1689563818
213,anahuac,27.2333,-100.15,307.09,25,31,8.75,MX,1689563818
214,sao gabriel da cachoeira,-0.1303,-67.0892,295.93,99,100,0.77,BR,1689563818
215,sao vicente,-23.9631,-46.3919,296.25,26,7,0.79,BR,1689563818
216,nar'yan-mar,67.6713,53.087,289.42,81,91,4.59,RU,1689563819
217,blackfoot,43.1905,-112.345,305.6,18,3,1.54,US,1689563819
218,komsomol'skiy,43.9783,46.6985,292.89,68,56,6.37,RU,1689563819
219,korla,41.7597,86.1469,309.13,14,84,7.26,CN,1689563819
220,leava,-14.3,-178.1667,299.64,82,97,11.1,WF,1689563819
221,nema,57.5067,50.5011,289.39,70,84,3.69,RU,1689563820
222,ar rutbah,33.0381,40.2848,301.13,19,0,3.22,IQ,1689563820
223,carauari,-4.8828,-66.8958,296.23,95,100,0.96,BR,1689563820
224,ploneour-lanvern,47.9,-4.2833,287.31,100,75,0.51,FR,1689563820
225,polyarnyy,69.1989,33.4478,288.86,67,100,4.12,RU,1689563820
226,sisimiut,66.9395,-53.6735,280.77,96,100,1.82,GL,1689563820
227,al khums,32.6486,14.2619,300.1,47,0,1.25,LY,1689563821
228,fortuna foothills,32.6578,-114.4119,312.2,33,0,5.14,US,1689563821
229,nanpiao,41.0982,120.7479,305.05,38,0,1.94,CN,1689563821
230,mejit,10.2753,170.8646,301.31,77,51,5.75,MH,1689563821
231,jiazi,22.8779,116.067,300.99,89,100,9.05,CN,1689563821
232,harper,4.375,-7.7169,297.62,88,100,3.75,LR,1689563822
233,praia,14.9215,-23.5087,300.45,78,75,4.63,CV,1689563822
234,melekeok village,7.4957,134.6367,302.46,84,100,4.63,PW,1689563822
235,talnakh,69.4865,88.3972,282.71,61,87,4.32,RU,1689563823
236,onega,63.9061,38.1404,290.55,71,44,1.52,RU,1689563823
237,pisco,-13.7,-76.2167,291.18,77,75,1.54,PE,1689563823
238,martakert,40.2104,46.821,291.98,85,97,1.87,AZ,1689563823
239,bridgewater,44.3835,-64.5155,294.32,95,100,5.66,CA,1689563824
240,st. john's,47.5649,-52.7093,293.3,96,100,3.09,CA,1689563824
241,sabang,5.8933,95.3214,301.32,76,100,10.39,ID,1689563824
242,lata,40.1629,-8.3327,286.52,93,0,1.16,PT,1689563824
243,alice springs,-23.7,133.8833,293.9,35,19,6.17,AU,1689563825
244,caraballeda,10.6112,-66.8522,304.19,84,75,2.57,VE,1689563825
245,wainwright,52.839,-110.8572,291.42,64,38,4.48,CA,1689563572
246,machico,32.7,-16.7667,294.5,72,40,5.14,PT,1689563825
247,jiagedaqi,50.4167,124.1167,304.23,35,19,0.36,CN,1689563826
248,tura,25.5198,90.2201,299.76,83,100,2.14,IN,1689563826
249,tsiombe,-25.3,45.4833,288.92,79,5,2.18,MG,1689563826
250,dryden,49.7833,-92.7503,286.31,88,100,3.6,CA,1689563826
251,saurimo,-9.6608,20.3916,289.94,33,0,3.61,AO,1689563827
252,kisaran,2.9845,99.6158,303.52,62,98,0.3,ID,1689563827
253,turbat,26.0023,63.044,301.78,73,93,1.04,PK,1689563828
254,calabozo,8.9242,-67.4293,297.33,90,81,2.04,VE,1689563828
255,riosucio,5.4216,-75.7032,287.6,97,87,0.56,CO,1689563828
256,susuman,62.7833,148.1667,293.52,38,100,0.83,RU,1689563829
257,darwin,-12.4611,130.8418,303.65,35,0,7.72,AU,1689563829
258,lewistown,40.5992,-77.5714,296.56,91,0,0.0,US,1689563829
259,naze,28.3667,129.4833,303.66,81,86,7.61,JP,1689563829
260,surgut,61.25,73.4167,293.25,49,0,3.13,RU,1689563829
261,chibougamau,49.9168,-74.3659,291.94,94,0,1.54,CA,1689563830
262,karak city,31.1637,35.762,296.47,38,0,1.82,JO,1689563830
263,borujen,31.9652,51.2873,295.67,16,0,1.46,IR,1689563830
264,viedma,-40.8135,-62.9967,277.31,52,17,6.0,AR,1689563532
265,evora,38.5667,-7.9,286.11,62,0,2.62,PT,1689563831
266,alaghsas,17.0187,8.0168,305.03,26,13,4.29,NE,1689563831
267,babahoyo,-1.8167,-79.5167,297.52,91,63,1.55,EC,1689563831
268,kingston,17.997,-76.7936,302.68,86,20,2.57,JM,1689563831
269,pervomayskoye,43.919,46.7102,292.77,68,53,6.23,RU,1689563831
270,saint-joseph,-21.3667,55.6167,292.36,82,25,6.08,RE,1689563832
271,qaqortoq,60.7167,-46.0333,279.76,93,92,0.68,GL,1689563832
272,okhotsk,59.3833,143.3,289.41,82,99,2.38,RU,1689563832
273,roma,43.2128,-75.4557,294.11,93,0,0.0,US,1689563832
274,avarua,-21.2078,-159.775,296.18,64,100,2.57,CK,1689563833
275,koster,-25.863,26.8976,279.47,50,0,2.27,ZA,1689563833
276,kirensk,57.7853,108.1119,290.38,97,100,1.42,RU,1689563833
277,namibe,-15.1961,12.1522,293.26,59,0,1.69,AO,1689563833
278,kupang,-10.1667,123.5833,303.47,54,20,6.17,ID,1689563834
279,morehead city,34.7229,-76.726,301.49,91,0,4.12,US,1689563835
280,tocoa,15.6833,-86.0,297.74,92,91,0.47,HN,1689563835
281,bandarbeyla,9.4942,50.8122,298.47,69,27,12.79,SO,1689563836
282,buala,-8.145,159.5921,301.27,79,74,1.09,SB,1689563836
283,solwezi,-12.1688,26.3894,282.34,77,4,1.94,ZM,1689563836
284,porrino,42.1616,-8.6198,289.25,88,0,1.03,ES,1689563836
285,castro,-24.7911,-50.0119,284.73,76,51,1.03,BR,1689563837
286,santiago de cao,-7.9589,-79.2392,295.22,88,100,4.12,PE,1689563837
287,karratha,-20.7377,116.8463,297.52,31,5,5.17,AU,1689563837
288,oamaru,-45.0784,170.9801,285.35,63,100,3.44,NZ,1689563837
289,jacmel,18.2342,-72.5347,302.06,83,11,0.41,HT,1689563838
290,bhadrakh,21.0528,86.52,302.74,71,100,3.26,IN,1689563838
291,hun,29.1268,15.9477,298.77,45,1,3.12,LY,1689563838
292,novodvinsk,64.4165,40.8122,291.34,65,94,1.97,RU,1689563838
293,pandan,14.0453,124.1694,304.08,66,100,3.34,PH,1689563839
294,aldama,22.9167,-98.0667,302.31,91,13,2.06,MX,1689563839
295,lozova,48.8894,36.3176,288.49,75,0,3.06,UA,1689563839
296,khabarovsk,48.4808,135.0928,294.04,88,100,3.13,RU,1689563839
297,kuanda,56.3161,116.0806,301.65,46,57,3.9,RU,1689563839
298,kish,26.5578,54.0194,305.3,94,0,3.09,IR,1689563840
299,salalah,17.0151,54.0924,298.2,100,100,3.6,OM,1689563840
300,talcahuano,-36.7167,-73.1167,278.97,75,0,2.57,CL,1689563840
301,port alfred,-33.5906,26.891,289.28,51,42,2.45,ZA,1689563840
302,port blair,11.6667,92.75,302.17,79,100,5.14,IN,1689563840
303,sitka,57.0531,-135.33,287.09,94,100,2.57,US,1689563841
304,keflavik,64.0049,-22.5624,282.1,76,0,4.12,IS,1689563841
305,corinto,37.9407,22.9573,301.98,57,0,1.7,GR,1689563841
306,goulburn,-34.75,149.7167,288.59,60,2,0.89,AU,1689563841
307,funafuti,-8.5243,179.1942,305.15,79,75,4.12,TV,1689563842
308,beloyarskiy,63.7119,66.6722,295.09,46,96,3.61,RU,1689563842
309,bel ombre,-4.6167,55.4167,299.06,78,40,5.14,SC,1689563842
310,sitangkai,4.6628,119.3928,301.55,80,97,9.18,PH,1689563842
311,akureyri,65.6835,-18.0878,280.11,87,100,3.6,IS,1689563843
312,lazaro cardenas,17.9583,-102.2,301.13,87,6,2.03,MX,1689563843
313,kenai,60.5544,-151.2583,287.2,97,100,4.12,US,1689563843
314,ha giang,22.8333,104.9833,308.28,37,62,2.85,VN,1689563844
315,usogorsk,63.4106,48.6872,291.26,77,96,1.52,RU,1689563844
316,piti village,13.4626,144.6933,304.64,75,75,7.2,GU,1689563844
317,lebu,-37.6167,-73.65,279.76,73,99,3.15,CL,1689563845
318,bikenibeu village,1.3673,173.1241,302.13,79,40,2.06,KI,1689563845
319,malmberget,67.1753,20.6549,286.46,88,100,5.14,SE,1689563845
320,lorengau,-2.0226,147.2712,302.89,71,97,5.81,PG,1689563845
321,gujar khan,33.2558,73.3026,303.5,62,0,3.4,PK,1689563749
322,rio grande,-32.035,-52.0986,277.56,78,99,4.72,BR,1689563705
323,san patricio,28.017,-97.5169,302.2,80,45,7.11,US,1689563846
324,bocaiuva,-17.1078,-43.815,291.99,64,38,0.93,BR,1689563846
325,salavat,53.3837,55.9077,287.79,94,100,3.52,RU,1689563846
326,kralendijk,12.15,-68.2667,301.14,83,40,5.66,BQ,1689563834
327,fisterra,42.9049,-9.2629,286.9,82,4,5.46,ES,1689563847
328,arkhangel'sk,64.5401,40.5433,291.49,65,100,1.98,RU,1689563583
329,anna regina,7.2644,-58.5077,299.22,85,18,3.81,GY,1689563847
330,darnah,32.767,22.6367,299.71,74,0,9.01,LY,1689563847
331,hasaki,35.7333,140.8333,307.37,70,76,3.98,JP,1689563848
332,auki,-8.7676,160.7034,299.38,86,97,1.21,SB,1689563848
333,president roxas,7.1544,125.0558,303.2,66,80,1.75,PH,1689563848
334,praia da vitoria,38.7333,-27.0667,293.29,77,40,3.72,PT,1689563848
335,lionel town,17.8101,-77.2406,303.09,85,17,2.78,JM,1689563848
336,marsa alam,25.0757,34.8918,306.13,29,1,3.04,EG,1689563632
337,egilsstadir,65.2653,-14.3948,281.1,81,75,1.54,IS,1689563849
338,queenstown,-31.8976,26.8753,281.54,49,53,2.87,ZA,1689563849
339,uturoa,-16.7333,-151.4333,298.91,65,1,4.3,PF,1689563849
340,daru,-9.0763,143.2092,299.03,82,43,5.74,PG,1689563849
341,road town,18.4167,-64.6167,301.2,78,100,9.94,VG,1689563821
342,nagqu,31.5,92.0,283.12,50,0,2.15,CN,1689563850
343,tomatlan,19.9333,-105.25,299.99,89,100,0.88,MX,1689563850
344,kailua-kona,19.6406,-155.9956,301.13,82,100,4.12,US,1689563850
345,laguna,38.421,-121.4238,310.79,40,0,4.12,US,1689563687
346,hotan,37.0997,79.9269,306.61,12,98,1.77,CN,1689563851
347,kande,9.9578,1.0447,296.66,91,98,1.05,TG,1689563851
348,mugia,43.1041,-9.2179,286.99,81,4,5.0,ES,1689563851
349,amursk,50.2261,136.8994,294.24,71,100,0.55,RU,1689563851
350,berezovyy,51.6667,135.7,300.93,45,67,3.17,RU,1689563852
351,boyolangu,-8.1181,111.8935,299.89,63,67,4.7,ID,1689563852
352,remire-montjoly,4.9167,-52.2667,295.17,100,11,0.0,GF,1689563852
353,luderitz,-26.6481,15.1594,290.36,44,0,2.87,NA,1689563852
354,olovyannaya,50.95,115.5667,303.49,29,0,6.38,RU,1689563853
355,constantia,44.1833,28.65,292.53,65,0,2.22,RO,1689563853
356,hithadhoo,-0.6,73.0833,300.65,73,87,1.52,MV,1689563853
357,luba,3.4568,8.5547,297.09,89,100,2.79,GQ,1689563853
358,greenville,35.6127,-77.3663,298.24,97,0,0.0,US,1689563853
359,alofi,-19.0595,-169.9187,293.09,94,100,4.63,NU,1689563854
360,dolbeau-mistassini,48.8763,-72.212,291.51,99,97,0.95,CA,1689563854
361,longyearbyen,78.2186,15.6401,281.06,71,75,6.69,SJ,1689563846
362,lucas,41.6501,-83.6666,294.26,75,0,0.0,US,1689563854
363,pangody,65.85,74.4859,287.82,72,99,6.83,RU,1689563854
364,amga,60.8953,131.9608,293.97,40,3,0.42,RU,1689563854
365,bangar,16.8936,120.4243,300.41,88,100,2.61,PH,1689563855
366,island harbour,50.724,-1.2758,289.22,87,24,2.68,GB,1689563855
367,bhimunipatnam,17.8833,83.4333,298.88,77,100,4.17,IN,1689563855
368,sarykemer,43.0,71.5,300.86,21,0,0.82,KZ,1689563855
369,kavalerovo,44.2661,135.0572,296.57,65,94,1.72,RU,1689563855
370,el tigre,8.8875,-64.2454,297.55,85,35,4.55,VE,1689563856
371,cedral,23.8,-100.7333,295.43,44,10,4.89,MX,1689563856
372,dabat,12.9842,37.765,284.53,91,59,0.27,ET,1689563856
373,mexia,31.6799,-96.4822,302.29,80,0,2.57,US,1689563856
374,colchani,-20.3,-66.9333,275.88,23,0,3.04,BO,1689563856
375,nelson bay,-32.7167,152.15,293.15,76,58,1.79,AU,1689563856
376,saint-philippe,-21.3585,55.7679,292.92,85,37,5.78,RE,1689563857
377,kaiapoi,-43.3783,172.6401,289.34,48,15,2.57,NZ,1689563857
378,linqiong,30.4159,103.4609,305.05,65,6,1.17,CN,1689563857
379,liwale,-9.7667,37.9333,288.18,85,9,1.77,TZ,1689563857
380,malango,-2.9627,119.9001,294.72,83,99,0.81,ID,1689563857
381,semporna,4.4818,118.6112,302.37,71,99,6.15,MY,1689563858
382,masterton,-40.9597,175.6575,286.97,66,2,1.68,NZ,1689563859
383,ormara,25.2088,64.6357,301.33,80,79,3.54,PK,1689563859
384,kingscliff,-28.2667,153.5667,294.11,68,100,6.17,AU,1689563859
385,potosi,-19.5836,-65.7531,277.83,17,0,1.65,BO,1689563860
386,kalmunai,7.4167,81.8167,302.57,65,84,2.84,LK,1689563860
387,saint-pierre,-21.3393,55.4781,292.97,64,0,2.06,RE,1689563860
388,turkmenbasy,40.0222,52.9552,296.58,60,0,9.77,TM,1689563860
389,vega de alatorre,20.0333,-96.6333,300.57,83,25,3.66,MX,1689563860
390,qamdo,31.1667,97.2333,278.78,82,100,1.17,CN,1689563861
391,san tan valley,33.1911,-111.528,314.87,25,0,5.14,US,1689563861
392,yeppoon,-23.1333,150.7333,298.85,67,65,7.95,AU,1689563861
393,datong,40.0936,113.2914,301.78,25,0,3.21,CN,1689563861
394,happy valley-goose bay,53.3168,-60.3315,296.32,73,75,5.14,CA,1689563711
395,la romana,18.4273,-68.9728,300.35,83,40,0.0,DO,1689563862
396,petropavlovsk-kamchatsky,53.0452,158.6483,291.48,72,75,6.0,RU,1689563862
397,el calafate,-50.3408,-72.2768,268.89,73,14,2.24,AR,1689563862
398,ramos arizpe,25.55,-100.9667,301.37,36,54,2.78,MX,1689563701
399,comodoro rivadavia,-45.8667,-67.5,274.07,51,0,5.66,AR,1689563798
400,richfield,44.8833,-93.283,292.58,53,20,4.63,US,1689563862
401,cill airne,52.05,-9.5167,283.72,96,83,2.33,IE,1689563863
402,hilo,19.7297,-155.09,299.4,82,100,3.6,US,1689563738
403,jaen,38.0,-3.5,298.67,25,3,0.94,ES,1689563863
404,whitehorse,60.7161,-135.0538,299.27,29,75,5.14,CA,1689563647
405,sena madureira,-9.0656,-68.6569,299.68,64,98,0.84,BR,1689563832
406,iquique,-20.2208,-70.1431,291.17,75,49,2.06,CL,1689563638
407,quellon,-43.1167,-73.6167,272.29,100,20,0.51,CL,1689563848
408,warman,52.3168,-106.5679,289.1,59,20,3.6,CA,1689563864
409,salekhard,66.53,66.6019,294.84,52,99,5.58,RU,1689563864
410,awjilah,29.1081,21.2869,302.09,39,18,5.68,LY,1689563864
411,bubaque,11.2833,-15.8333,300.56,82,100,8.18,GW,1689563864
412,celestun,20.8667,-90.4,301.32,78,7,7.48,MX,1689563864
413,revelstoke,50.9832,-118.2023,298.16,78,75,1.54,CA,1689563711
414,elesbao veloso,-6.2019,-42.1403,295.68,49,11,2.11,BR,1689563865
415,kapuskasing,49.4169,-82.4331,288.15,94,75,2.06,CA,1689563865
416,antsiranana,-12.2787,49.2917,294.9,79,48,3.56,MG,1689563865
417,fraserburgh,57.6874,-2.0184,284.5,92,100,10.54,GB,1689563865
418,choix,26.7092,-108.3219,301.42,77,99,1.86,MX,1689563866
419,mazamari,-11.3258,-74.5308,296.6,75,92,0.52,PE,1689563866
420,rundu,-17.9333,19.7667,282.29,55,30,2.85,NA,1689563866
421,cynthiana,38.3904,-84.2941,297.55,66,8,2.97,US,1689563866
422,aleg,17.0481,-13.9209,300.11,66,96,7.01,MR,1689563866
423,fray luis beltran,-39.3167,-65.7667,274.98,51,0,2.2,AR,1689563866
424,hailey,43.5196,-114.3153,299.07,26,0,7.15,US,1689563867
425,mitu,1.1983,-70.1733,295.6,99,98,1.01,CO,1689563867
426,crane,31.3974,-102.3501,305.75,24,0,7.32,US,1689563857
427,punta del este,-34.9667,-54.95,283.13,74,75,7.15,UY,1689563867
428,axim,4.8699,-2.2405,297.15,91,68,2.78,GH,1689563868
429,kogalym,62.2654,74.4791,291.28,44,59,3.52,RU,1689563868
430,clearwater,27.9659,-82.8001,303.12,80,75,4.47,US,1689563857
431,hadibu,12.65,54.0333,298.29,81,100,10.4,YE,1689563868
432,pinhao,-25.6956,-51.6597,283.51,89,49,0.59,BR,1689563868
433,banda aceh,5.5577,95.3222,302.6,66,100,6.55,ID,1689563869
434,maceio,-9.6658,-35.7353,296.84,88,75,1.54,BR,1689563869
435,toliara,-23.35,43.6667,290.56,86,12,3.17,MG,1689563869
436,atbasar,51.8,68.3333,295.06,57,100,3.87,KZ,1689563869
437,valparaiso,-33.0393,-71.6273,282.95,81,0,1.54,CL,1689563764
438,medicine hat,50.0501,-110.6683,298.39,45,75,6.69,CA,1689563725
439,caetite,-14.0694,-42.475,290.35,91,0,3.89,BR,1689563870
440,ribeira brava,32.65,-17.0667,294.5,69,86,3.35,PT,1689563870
441,pijijiapan,15.7011,-93.23,298.56,92,100,1.7,MX,1689563870
442,santarem,-2.4431,-54.7083,297.22,100,0,1.03,BR,1689563870
443,nanaimo,49.1663,-123.936,298.2,56,20,2.57,CA,1689563571
444,sanctuary point,-35.1114,150.629,294.25,58,5,4.37,AU,1689563871
445,vila franca do campo,37.7167,-25.4333,293.38,80,100,2.21,PT,1689563871
446,sonoita,31.85,-112.8333,308.03,36,51,5.53,MX,1689563871
447,kayangel,8.0823,134.7173,301.63,80,92,5.32,PW,1689563871
448,zyryanovsk,49.7386,84.2719,297.03,34,2,1.34,KZ,1689563871
449,bijapur,16.8333,75.7,296.84,77,100,7.44,IN,1689563872
450,palikir - national government center,6.9248,158.1611,300.62,78,100,5.14,FM,1689563872
451,conception bay south,47.4999,-52.9981,293.17,94,93,4.04,CA,1689563799
452,itacarambi,-15.1022,-44.0919,295.02,63,21,1.54,BR,1689563872
453,wenchang,30.904,118.4887,300.36,87,96,1.7,CN,1689563678
454,shkoder,42.0683,19.5126,298.25,77,0,1.87,AL,1689563873
455,kavieng,-2.5744,150.7967,302.56,71,40,4.5,PG,1689563873
456,diego martin,10.7005,-61.5342,298.03,88,1,2.54,TT,1689563873
457,kavaratti,10.5669,72.642,301.34,79,100,8.6,IN,1689563873
458,kijang,35.2442,129.2139,302.0,80,32,5.56,KR,1689563873
459,kittila,67.6647,24.8936,288.23,88,40,4.63,FI,1689563873
460,gamba,-2.65,10.0,294.35,90,100,1.7,GA,1689563874
461,backo gradiste,45.5328,20.0283,295.38,74,0,0.97,RS,1689563874
462,sao joao da barra,-21.6403,-41.0511,294.37,90,7,1.81,BR,1689563874
463,valley city,46.9233,-98.0032,286.44,82,0,3.09,US,1689563874
464,sandnessjoen,66.0217,12.6316,290.21,67,75,7.2,NO,1689563874
465,valsad,20.6333,72.9333,300.41,85,92,3.58,IN,1689563874
466,ornskoldsvik,63.2909,18.7153,288.68,94,100,4.12,SE,1689563875
467,tenabo,20.05,-90.2333,300.15,58,76,1.91,MX,1689563875
468,tweed heads,-28.1817,153.547,294.38,68,100,6.17,AU,1689563817
469,maricopa,33.0581,-112.0476,315.79,27,89,1.79,US,1689563875
470,abancay,-13.6339,-72.8814,285.16,88,17,1.16,PE,1689563846
471,gyumri,40.7942,43.8453,280.94,76,2,1.03,AM,1689563876
472,maumere,-8.6199,122.2111,300.6,67,72,4.01,ID,1689563876
473,hamburg,53.55,10.0,289.42,78,20,3.6,DE,1689563750
474,nuku'alofa,-21.1333,-175.2,297.34,64,20,5.66,TO,1689563876
475,mana,5.6592,-53.7767,298.39,91,15,4.35,GF,1689563876
476,klaksvik,62.2266,-6.589,281.66,88,100,8.53,FO,1689563876
477,madras,13.0878,80.2785,304.14,73,40,5.14,IN,1689563707
478,yenangyaung,20.4667,94.8833,304.14,59,79,1.95,MM,1689563877
479,jarinu,-23.1014,-46.7283,290.74,74,13,0.96,BR,1689563877
480,margate,51.3813,1.3862,287.21,88,19,2.24,GB,1689563877
481,pakxan,18.3778,103.6601,300.18,85,98,1.49,LA,1689563877
482,ankang,32.68,109.0172,303.13,60,0,1.92,CN,1689563877
483,asau,46.4333,26.4,290.66,76,0,2.35,RO,1689563878
484,shimoda,34.6667,138.95,305.99,74,49,1.39,JP,1689563878
485,santana,-0.0583,-51.1817,301.25,83,40,5.14,BR,1689563878
486,kruisfontein,-34.0033,24.7314,285.67,60,42,2.33,ZA,1689563878
487,la'ie,21.6477,-157.9253,302.13,74,4,3.13,US,1689563879
488,zwolen,51.3554,21.5877,294.32,93,1,1.88,PL,1689563879
489,port augusta,-32.5,137.7667,290.05,38,0,2.36,AU,1689563879
490,tvoroyri,61.5556,-6.8111,282.81,86,100,9.26,FO,1689563879
491,salinopolis,-0.6136,-47.3561,298.89,87,20,5.01,BR,1689563725
492,kotlas,61.2611,46.6556,291.64,72,22,0.85,RU,1689563879
493,mbala,-8.8402,31.3659,283.46,81,0,4.7,ZM,1689563880
494,massawa,15.6097,39.45,307.2,45,83,3.48,ER,1689563880
495,kabalo,-6.05,26.9167,296.54,46,6,2.82,CD,1689563880
496,raduzhny,62.0961,77.475,289.61,39,67,1.6,RU,1689563880
497,boguchany,58.3814,97.4531,295.83,51,69,2.91,RU,1689563880
498,bull savanna,17.8868,-77.5902,298.64,83,37,2.92,JM,1689563881
499,rehoboth,-23.3167,17.0833,282.8,42,0,2.39,NA,1689563881
500,inarajan village,13.2736,144.7484,304.69,83,100,5.96,GU,1689563881
501,alegrete,-29.7831,-55.7919,279.87,77,6,3.59,BR,1689563604
502,vashkivtsi,48.3849,25.5102,291.79,83,0,1.34,UA,1689563881
503,atherton,53.5237,-2.4935,286.9,90,15,2.05,GB,1689563882
504,marbletown,41.8834,-74.1132,297.02,76,88,0.45,US,1689563882
505,kristiansund,63.1115,7.732,288.18,82,100,1.54,NO,1689563883
506,solnechnyy,50.7214,136.6319,295.95,63,96,1.93,RU,1689563884
507,mary,37.0,62.5,306.87,12,0,4.46,TM,1689563884
508,iligan city,8.25,124.4,303.89,52,20,2.39,PH,1689563804
509,tshikapa,-6.4167,20.8,294.49,38,36,1.67,CD,1689563885
510,igrim,63.1906,64.4162,294.73,46,36,3.32,RU,1689563885
511,anshun,26.25,105.9333,296.58,61,0,6.71,CN,1689563885
512,aitape,-3.1374,142.3475,301.91,74,95,1.67,PG,1689563885
513,wajir,1.7471,40.0573,294.22,81,55,3.33,KE,1689563887
514,sinop,41.7711,34.8709,289.38,74,0,1.49,TR,1689563888
515,horishni plavni,49.0097,33.6455,291.1,65,1,1.51,UA,1689563890
516,jiangzi,28.95,89.6333,285.59,52,100,1.59,CN,1689563894
517,labytnangi,66.6572,66.4183,294.3,56,97,4.57,RU,1689563894
518,broome,42.2506,-75.833,295.19,92,0,0.23,US,1689563894
519,kembe,4.6228,21.8865,294.35,91,22,0.28,CF,1689563894
520,fale old settlement,-9.3852,-171.2468,301.79,75,15,7.14,TK,1689563895
521,rocky mountain house,52.3668,-114.9188,293.21,73,19,1.54,CA,1689563895
522,jeremie,18.65,-74.1167,300.97,83,24,1.99,HT,1689563895
523,qui nhon,13.7667,109.2333,303.96,61,100,8.69,VN,1689563896
524,mragowo,53.8644,21.3051,289.15,95,11,2.21,PL,1689563896
525,siwa oasis,29.2041,25.5195,301.21,39,0,2.81,EG,1689563896
526,kiruna,67.8557,20.2251,285.66,82,20,9.26,SE,1689563896
527,ust'-kut,56.7938,105.7672,288.4,97,100,2.21,RU,1689563897
528,nurota,40.5614,65.6886,304.35,15,0,3.01,UZ,1689563897
529,borgarnes,64.5383,-21.9206,282.18,81,16,4.03,IS,1689563897
530,yunguyo,-16.25,-69.0833,278.13,74,2,1.66,PE,1689563897
531,fort st. john,56.2499,-120.8529,293.09,60,100,3.6,CA,1689563617
532,bakanas,44.8081,76.2772,304.54,21,4,5.27,KZ,1689563898
533,ariquemes,-9.9133,-63.0408,298.2,62,99,1.04,BR,1689563898
534,los frentones,-26.4077,-61.4137,284.6,71,76,2.41,AR,1689563898
535,katsuren-haebaru,26.3369,127.8719,305.16,74,40,9.26,JP,1689563850
536,callao,-12.0667,-77.15,294.31,73,75,5.14,PE,1689563789
537,nichinan,31.6,131.3667,301.97,72,29,3.67,JP,1689563899
538,vila velha,-20.3297,-40.2925,294.12,91,0,2.06,BR,1689563899
539,caleta olivia,-46.4393,-67.5281,274.71,60,0,6.77,AR,1689563899
540,ciudad constitucion,25.0369,-111.6644,302.14,46,7,4.41,MX,1689563899
541,puerto ayacucho,5.6639,-67.6236,297.34,92,100,1.06,VE,1689563900
542,ceeldheer,3.8488,47.1806,296.98,85,99,6.17,SO,1689563900
543,corner brook,48.9667,-57.9484,293.24,97,100,1.65,CA,1689563900
544,bom jesus,-9.0744,-44.3586,293.86,49,2,1.32,BR,1689563900
545,camarinas,43.1311,-9.1817,287.0,82,5,4.71,ES,1689563901
546,el colomo,19.05,-104.25,301.28,83,82,1.14,MX,1689563901
547,holualoa,19.6228,-155.9522,299.06,82,100,4.12,US,1689563901
548,parabel',58.6978,81.4825,291.31,63,66,2.55,RU,1689563901
549,miles city,46.4083,-105.8406,295.69,49,75,4.12,US,1689563901
550,chilecito,-29.1619,-67.4974,278.55,77,10,1.74,AR,1689563902
551,coronel dorrego,-38.7187,-61.2873,278.01,73,62,6.16,AR,1689563788
552,weno,7.4515,151.8468,300.12,89,100,1.54,FM,1689563902
553,brisas de zicatela,15.8369,-97.0419,299.58,86,100,2.35,MX,1689563902
554,tindouf,27.6711,-8.1474,309.4,21,75,3.09,DZ,1689563903
555,cadale,2.7603,46.3222,298.17,82,100,7.96,SO,1689563903
556,santo antonio da platina,-23.295,-50.0772,288.11,64,45,0.63,BR,1689563903
557,nyasvizh,53.2181,26.6725,291.13,95,93,2.63,BY,1689563904
